{
"type": "FeatureCollection",
"name": "Municipios_Points",
"crs": { "type": "name", "properties": { "name": "urn:ogc:def:crs:OGC:1.3:CRS84" } },
"features": [
{ "type": "Feature", "properties": { "nombre": "El Triunfo" }, "geometry": { "type": "Point", "coordinates": [ -87.0065, 13.0881 ] } },
{ "type": "Feature", "properties": { "nombre": "Marcovia" }, "geometry": { "type": "Point", "coordinates": [ -87.38, 13.2499 ] } },
{ "type": "Feature", "properties": { "nombre": "Namasigue" }, "geometry": { "type": "Point", "coordinates": [ -87.1561, 13.1512 ] } },
{ "type": "Feature", "properties": { "nombre": "Nacaome" }, "geometry": { "type": "Point", "coordinates": [ -87.5354, 13.5068 ] } },
{ "type": "Feature", "properties": { "nombre": "Amapala" }, "geometry": { "type": "Point", "coordinates": [ -87.6189, 13.3424 ] } },
{ "type": "Feature", "properties": { "nombre": "Goascoran" }, "geometry": { "type": "Point", "coordinates": [ -87.7115, 13.5911 ] } },
{ "type": "Feature", "properties": { "nombre": "San Lorenzo" }, "geometry": { "type": "Point", "coordinates": [ -87.4144, 13.4608 ] } }
]
}
